[
    {
        "id": "a04e5298-a5ef-4006-b5bf-35755730c511",
        "name": "Ain Shams → El Maadi #1",
        "description": "Imported route: Ain Shams_Maadi. 10 stops, ~30.0 km.",
        "estimated_duration_mins": 57,
        "paired_return_route_id": null,
        "bookings_open": true,
        "route_visibility": "public",
        "route_stops": [
            {
                "id": "bdfc0c48-7d88-42fb-8cb9-8a2bb76a0561",
                "lat": 30.1324,
                "lng": 31.3231,
                "name": "Mazlaqan Ain Shams",
                "stop_order": 0,
                "cumulative_price": 0.00
            },
            {
                "id": "58fa30ca-8359-473f-8361-c968cfb89ddc",
                "lat": 30.129553,
                "lng": 31.321639,
                "name": "New Al Easr Mall",
                "stop_order": 1,
                "cumulative_price": 0.00
            },
            {
                "id": "d9d4d150-16a5-48ad-9c64-cefccedcf8b1",
                "lat": 30.12231714,
                "lng": 31.31818576,
                "name": "El Tawhed & El Noor",
                "stop_order": 2,
                "cumulative_price": 0.00
            },
            {
                "id": "1359161e-fbbc-425d-aaa4-2c90459fff90",
                "lat": 30.112372,
                "lng": 31.316303,
                "name": "Mr. Avocado Juices",
                "stop_order": 3,
                "cumulative_price": 0.00
            },
            {
                "id": "81603286-9599-48ab-ac6f-79253e5d4608",
                "lat": 30.11504,
                "lng": 31.30606,
                "name": "Al Gamal Mall",
                "stop_order": 4,
                "cumulative_price": 0.00
            },
            {
                "id": "62d0710f-e22d-4758-8a77-349bc144c4b7",
                "lat": 30.1024,
                "lng": 31.301067,
                "name": "Al Batal Al Romani Company for Car Tires",
                "stop_order": 5,
                "cumulative_price": 0.00
            },
            {
                "id": "371184f7-fe08-43cf-aa37-e0975a2bdfcc",
                "lat": 29.9759,
                "lng": 31.283794,
                "name": "HSBC New Maadi Branch",
                "stop_order": 6,
                "cumulative_price": 0.00
            },
            {
                "id": "8bdf27e1-0eb6-4e33-b0a5-d6bb6b57fd40",
                "lat": 29.972475,
                "lng": 31.280281,
                "name": "Maadi Technology Village",
                "stop_order": 7,
                "cumulative_price": 0.00
            },
            {
                "id": "179db220-d48a-4168-9778-d3da1b55743d",
                "lat": 29.95989926,
                "lng": 31.26976388,
                "name": "Concentrix",
                "stop_order": 8,
                "cumulative_price": 0.00
            },
            {
                "id": "2d318920-df17-4530-a664-c4869badec2e",
                "lat": 29.96049934,
                "lng": 31.2505053,
                "name": "Misr Helwan Agriculture Rd",
                "stop_order": 9,
                "cumulative_price": 0.00
            }
        ]
    },
    {
        "id": "41f14bd4-bbed-4931-a41a-96dbec2e0480",
        "name": "Downtown → Smart Village #1",
        "description": "Imported route: Downtown_Smart Village10339. 13 stops, ~37.9 km.",
        "estimated_duration_mins": 73,
        "paired_return_route_id": null,
        "bookings_open": true,
        "route_visibility": "public",
        "route_stops": [
            {
                "id": "52c4a933-a9f9-4c64-89b4-5be9c8b22a73",
                "lat": 30.06376,
                "lng": 31.27186,
                "name": "El Abaseya Street",
                "stop_order": 0,
                "cumulative_price": 0.00
            },
            {
                "id": "834b18fd-13c9-43e2-8691-c961b312f63f",
                "lat": 30.06376,
                "lng": 31.27186,
                "name": "El Abaseya Street",
                "stop_order": 1,
                "cumulative_price": 0.00
            },
            {
                "id": "b0dbd940-37c7-406d-8929-fbf07b1c2156",
                "lat": 30.068333,
                "lng": 31.264063,
                "name": "Ramses Street",
                "stop_order": 2,
                "cumulative_price": 0.00
            },
            {
                "id": "18f563df-1c8a-4407-b592-ce8b8d8c41f3",
                "lat": 30.064902,
                "lng": 31.255097,
                "name": "Ramses Street",
                "stop_order": 3,
                "cumulative_price": 0.00
            },
            {
                "id": "cb8ce6c1-6d5b-4e3a-8370-e58c24272bd9",
                "lat": 30.061367,
                "lng": 31.24647,
                "name": "Ramses Street",
                "stop_order": 4,
                "cumulative_price": 0.00
            },
            {
                "id": "07e9d66f-0398-4a39-8eb8-6fd33886dcfd",
                "lat": 30.053636,
                "lng": 31.237454,
                "name": "El Galaa St",
                "stop_order": 5,
                "cumulative_price": 0.00
            },
            {
                "id": "4162cdec-d2cc-4c2f-a097-84c05a5e1fec",
                "lat": 30.05049,
                "lng": 31.233737,
                "name": "El Galaa St",
                "stop_order": 6,
                "cumulative_price": 0.00
            },
            {
                "id": "6e0d26b5-a059-4b0b-9ce5-4c8530892868",
                "lat": 30.0635,
                "lng": 31.025434,
                "name": "Mobil Gas Station (Near Dandy Mall)",
                "stop_order": 7,
                "cumulative_price": 0.00
            },
            {
                "id": "0a1cccce-8017-42be-99f5-9f2c60a1698c",
                "lat": 30.07247,
                "lng": 31.02279,
                "name": "Opposite National Telecommunication Institute",
                "stop_order": 8,
                "cumulative_price": 0.00
            },
            {
                "id": "f687c55f-7e1b-4fb5-a030-6377764978ad",
                "lat": 30.073932,
                "lng": 31.013829,
                "name": "Opposite ECG - Engineering Consultants Group",
                "stop_order": 9,
                "cumulative_price": 0.00
            },
            {
                "id": "813b1cb3-79b3-4c0f-bbd4-898933a78729",
                "lat": 30.07778,
                "lng": 31.01351,
                "name": "Smart Village Conference Center",
                "stop_order": 10,
                "cumulative_price": 0.00
            },
            {
                "id": "a194aaf6-e05e-4675-abc0-9253637aa4ef",
                "lat": 30.081384,
                "lng": 31.017152,
                "name": "Near Arab Academy for Science Technology and Maritime Transport University",
                "stop_order": 11,
                "cumulative_price": 0.00
            },
            {
                "id": "89ed41ec-cab2-4ef6-a323-910fb09d89ca",
                "lat": 30.071288,
                "lng": 31.029898,
                "name": "Cairo Alexandria Desert Road",
                "stop_order": 12,
                "cumulative_price": 0.00
            }
        ]
    },
    {
        "id": "b7970932-4c15-41aa-ac34-bfd0296cea5f",
        "name": "El Maadi → Ain Shams #1",
        "description": "Imported route: Maadi_Ain Shams. 10 stops, ~30.1 km.",
        "estimated_duration_mins": 57,
        "paired_return_route_id": null,
        "bookings_open": true,
        "route_visibility": "public",
        "route_stops": [
            {
                "id": "43ef54ab-db5a-47d4-8463-e5e0b7b6aaf9",
                "lat": 29.96049934,
                "lng": 31.2505053,
                "name": "Misr Helwan Agriculture Rd",
                "stop_order": 0,
                "cumulative_price": 0.00
            },
            {
                "id": "7a8f4c00-16a0-46d9-976c-bebc55b89dae",
                "lat": 29.95989926,
                "lng": 31.26976388,
                "name": "Concentrix",
                "stop_order": 1,
                "cumulative_price": 0.00
            },
            {
                "id": "e419e7a9-3a35-42e5-8f39-cde98b1db4a6",
                "lat": 29.97258,
                "lng": 31.2805,
                "name": "Maadi Technology Village",
                "stop_order": 2,
                "cumulative_price": 0.00
            },
            {
                "id": "39b7608a-1899-4a17-bc6c-562eced2d9f7",
                "lat": 29.97577,
                "lng": 31.28387,
                "name": "Dubai Phone",
                "stop_order": 3,
                "cumulative_price": 0.00
            },
            {
                "id": "60fd4796-1827-4ce0-919f-44a0bc1f495e",
                "lat": 30.10242,
                "lng": 31.30123,
                "name": "Al Batal Al Romani Company for Car Tires",
                "stop_order": 4,
                "cumulative_price": 0.00
            },
            {
                "id": "b1d9329d-8c39-4ec2-88b1-7e1d3ebdb5da",
                "lat": 30.11496,
                "lng": 31.30636,
                "name": "Al Gamal Mall",
                "stop_order": 5,
                "cumulative_price": 0.00
            },
            {
                "id": "081ee4dc-d883-4891-96c2-bc97f2d938ee",
                "lat": 30.11221,
                "lng": 31.31654,
                "name": "Mr. Avocado Juices",
                "stop_order": 6,
                "cumulative_price": 0.00
            },
            {
                "id": "32c993d0-8842-4e49-9640-0a3949cdccc4",
                "lat": 30.12231714,
                "lng": 31.31818576,
                "name": "El Tawhed & El Noor",
                "stop_order": 7,
                "cumulative_price": 0.00
            },
            {
                "id": "9afeaa85-4e9c-4002-83a5-2cd8144f3aee",
                "lat": 30.1296,
                "lng": 31.32184,
                "name": "New Al Easr Mall",
                "stop_order": 8,
                "cumulative_price": 0.00
            },
            {
                "id": "056b40b6-507e-4547-aa1e-4b385df11df1",
                "lat": 30.1323,
                "lng": 31.3232,
                "name": "Mazlaqan Ain Shams",
                "stop_order": 9,
                "cumulative_price": 0.00
            }
        ]
    },
    {
        "id": "ded166a0-925e-4c82-9eed-b386e749669d",
        "name": "El Sherouk → Smart Village #1",
        "description": "Imported route: El Sherouk_Smart Village11172. 15 stops, ~93.6 km.",
        "estimated_duration_mins": 129,
        "paired_return_route_id": null,
        "bookings_open": true,
        "route_visibility": "public",
        "route_stops": [
            {
                "id": "533f16da-39ce-4d46-9a9a-4caef2a9851c",
                "lat": 30.160412,
                "lng": 31.624615,
                "name": "El Sadat Road",
                "stop_order": 0,
                "cumulative_price": 0.00
            },
            {
                "id": "ebbffbe2-1ca5-45ae-b137-80214c168aa5",
                "lat": 30.160412,
                "lng": 31.624615,
                "name": "El Sadat Road",
                "stop_order": 1,
                "cumulative_price": 0.00
            },
            {
                "id": "7fd9216e-6b27-41cf-9063-8316fe2f0304",
                "lat": 30.168937,
                "lng": 31.602372,
                "name": "El Horeya Square",
                "stop_order": 2,
                "cumulative_price": 0.00
            },
            {
                "id": "69774e56-627f-4fd3-8ab7-e5b2fd3bcf46",
                "lat": 30.15703,
                "lng": 31.595682,
                "name": "El Shorouk City Road",
                "stop_order": 3,
                "cumulative_price": 0.00
            },
            {
                "id": "86699291-e229-4a1d-8e67-c5e0518e192e",
                "lat": 30.13951,
                "lng": 31.59966,
                "name": "El Shorouk City Road",
                "stop_order": 4,
                "cumulative_price": 0.00
            },
            {
                "id": "15caf544-757d-4edc-8098-70e375a2740d",
                "lat": 30.126075,
                "lng": 31.60268,
                "name": "El Shorouk City Road",
                "stop_order": 5,
                "cumulative_price": 0.00
            },
            {
                "id": "57954e87-a368-4d09-ab01-9d030c834e05",
                "lat": 30.11849,
                "lng": 31.60444,
                "name": "El Shorouk City Road",
                "stop_order": 6,
                "cumulative_price": 0.00
            },
            {
                "id": "9d1c18c7-0966-4b0e-a7fb-d02687922dd5",
                "lat": 30.102862,
                "lng": 31.611233,
                "name": "Madinaty Entrance No. 1",
                "stop_order": 7,
                "cumulative_price": 0.00
            },
            {
                "id": "7b07174d-18b5-493f-9dff-ab0c346d8e1e",
                "lat": 30.08106,
                "lng": 31.020209,
                "name": "Concordia",
                "stop_order": 8,
                "cumulative_price": 0.00
            },
            {
                "id": "ed9aabd8-0f82-4edc-984e-faab6627f6bf",
                "lat": 30.07799,
                "lng": 31.013627,
                "name": "Near Bank of Alexandria",
                "stop_order": 9,
                "cumulative_price": 0.00
            },
            {
                "id": "7a3ddfc1-4c28-46d7-8a9f-e2eea94f6476",
                "lat": 30.072743,
                "lng": 31.015475,
                "name": "Orange Egypt",
                "stop_order": 10,
                "cumulative_price": 0.00
            },
            {
                "id": "950dc185-636f-415a-aeee-580699ed934f",
                "lat": 30.07441,
                "lng": 31.02313,
                "name": "Dar Al-Handasah",
                "stop_order": 11,
                "cumulative_price": 0.00
            },
            {
                "id": "64645454-a8b6-4d74-9bc4-f540e7a2bd61",
                "lat": 30.06498,
                "lng": 31.0216,
                "name": "Cairo Alexandria Road (Side Road)",
                "stop_order": 12,
                "cumulative_price": 0.00
            },
            {
                "id": "c455abba-3ca6-4758-9ef7-459420bdc200",
                "lat": 30.055316,
                "lng": 31.037847,
                "name": "Cairo Alexandria Road (Side Road)",
                "stop_order": 13,
                "cumulative_price": 0.00
            },
            {
                "id": "73552d4b-a113-46f1-a150-2019e99fdbfb",
                "lat": 30.055316,
                "lng": 31.037847,
                "name": "Cairo Alexandria Road (Side Road)",
                "stop_order": 14,
                "cumulative_price": 0.00
            }
        ]
    },
    {
        "id": "e5d2211e-ab60-4983-9016-d2e092f6ebd7",
        "name": "Haram → Smart Village #1",
        "description": "Imported route: Haram_Smart Village18816. 17 stops, ~32.4 km.",
        "estimated_duration_mins": 81,
        "paired_return_route_id": null,
        "bookings_open": true,
        "route_visibility": "public",
        "route_stops": [
            {
                "id": "f4f0d3f3-1f10-41cf-ad0e-3249ffb7fb0b",
                "lat": 29.998701,
                "lng": 31.205067,
                "name": "Tersa Street",
                "stop_order": 0,
                "cumulative_price": 0.00
            },
            {
                "id": "b09c4147-3b67-49c0-aeb3-c97d1fdc0935",
                "lat": 29.998729,
                "lng": 31.204961,
                "name": "Tersa Street",
                "stop_order": 1,
                "cumulative_price": 0.00
            },
            {
                "id": "bd056910-3911-4aad-a14e-18af86759980",
                "lat": 30.00487,
                "lng": 31.20314,
                "name": "Khatem El Morsaleen Street",
                "stop_order": 2,
                "cumulative_price": 0.00
            },
            {
                "id": "cbbcec76-b48d-4e83-a33b-a48034e54794",
                "lat": 30.00303,
                "lng": 31.196772,
                "name": "Khatem El Morsaleen Street",
                "stop_order": 3,
                "cumulative_price": 0.00
            },
            {
                "id": "89afe01d-c42e-4f3f-8417-53cdc45f702a",
                "lat": 30.00557,
                "lng": 31.19072,
                "name": "Al Haram Street",
                "stop_order": 4,
                "cumulative_price": 0.00
            },
            {
                "id": "048ae881-126a-409f-847a-a442d2cb9856",
                "lat": 30.0078,
                "lng": 31.18412,
                "name": "King Faisal Street",
                "stop_order": 5,
                "cumulative_price": 0.00
            },
            {
                "id": "e0a2f3e5-0265-4e9e-8d07-bca7df3f1f2a",
                "lat": 30.00498,
                "lng": 31.176713,
                "name": "King Faisal Street",
                "stop_order": 6,
                "cumulative_price": 0.00
            },
            {
                "id": "5d9af2ee-9284-4977-93b1-846979aea207",
                "lat": 30.000883,
                "lng": 31.166067,
                "name": "King Faisal Street",
                "stop_order": 7,
                "cumulative_price": 0.00
            },
            {
                "id": "7656c4b6-738f-4a3a-93c0-d4f275baeae3",
                "lat": 29.998365,
                "lng": 31.15933,
                "name": "King Faisal Street",
                "stop_order": 8,
                "cumulative_price": 0.00
            },
            {
                "id": "ae412fcf-8030-478e-b3d6-3de61ea8c334",
                "lat": 29.99564,
                "lng": 31.15156,
                "name": "King Faisal Street",
                "stop_order": 9,
                "cumulative_price": 0.00
            },
            {
                "id": "81cd56d7-8318-43a0-86e6-b1b7559988bd",
                "lat": 29.99221,
                "lng": 31.14121,
                "name": "King Faisal Street",
                "stop_order": 10,
                "cumulative_price": 0.00
            },
            {
                "id": "416897d3-9749-44af-9aea-07869c3973b5",
                "lat": 29.990587,
                "lng": 31.132735,
                "name": "El Mansoureya Road",
                "stop_order": 11,
                "cumulative_price": 0.00
            },
            {
                "id": "b4fb341a-7259-456d-ac35-54e94838aff5",
                "lat": 30.078463,
                "lng": 31.022002,
                "name": "Huawei Smart Village",
                "stop_order": 12,
                "cumulative_price": 0.00
            },
            {
                "id": "510d50a8-306f-45e9-b7d1-b174755c463a",
                "lat": 30.078037,
                "lng": 31.013671,
                "name": "Near Bank of Alexandria",
                "stop_order": 13,
                "cumulative_price": 0.00
            },
            {
                "id": "8d5d26b5-b81f-4b3d-a640-36700c182bab",
                "lat": 30.071183,
                "lng": 31.020407,
                "name": "Opposite Information Technology Institute",
                "stop_order": 14,
                "cumulative_price": 0.00
            },
            {
                "id": "8ac311a8-6180-4746-97e6-521974005e18",
                "lat": 30.065437,
                "lng": 31.021957,
                "name": "Cairo Alexandria Road (Side Road)",
                "stop_order": 15,
                "cumulative_price": 0.00
            },
            {
                "id": "913e9ea3-813f-417b-8dec-b49f36a2a8ad",
                "lat": 30.065549,
                "lng": 31.021838,
                "name": "Cairo Alexandria Road (Side Road)",
                "stop_order": 16,
                "cumulative_price": 0.00
            }
        ]
    },
    {
        "id": "d1ffd088-df89-49c4-a111-225bd2ae643c",
        "name": "Haram → Smart Village #2",
        "description": "Imported route: Haram_Smart Village19024. 13 stops, ~33.3 km.",
        "estimated_duration_mins": 71,
        "paired_return_route_id": null,
        "bookings_open": true,
        "route_visibility": "public",
        "route_stops": [
            {
                "id": "8e933fd4-691c-4755-8021-ba41d264c106",
                "lat": 29.990726,
                "lng": 31.135912,
                "name": "King Faisal Street",
                "stop_order": 0,
                "cumulative_price": 0.00
            },
            {
                "id": "8b4dda86-5c64-4938-b585-062d7d4d6b64",
                "lat": 29.990704,
                "lng": 31.135856,
                "name": "King Faisal Street",
                "stop_order": 1,
                "cumulative_price": 0.00
            },
            {
                "id": "fea409c3-bce2-4e92-814a-b51cb6326716",
                "lat": 29.977016,
                "lng": 31.112147,
                "name": "Al Fayoum Desert Road",
                "stop_order": 2,
                "cumulative_price": 0.00
            },
            {
                "id": "68e7f559-b8f8-4e5a-97e7-447f2988a749",
                "lat": 29.97107,
                "lng": 31.108585,
                "name": "Al Fayoum Desert Road",
                "stop_order": 3,
                "cumulative_price": 0.00
            },
            {
                "id": "b2e89bb1-75ab-4ab3-901f-42c4bedc6ab1",
                "lat": 29.963801,
                "lng": 31.108586,
                "name": "Al Fayoum Desert Road",
                "stop_order": 4,
                "cumulative_price": 0.00
            },
            {
                "id": "e3e5d636-d0a6-4fe3-a531-5aa1a1707932",
                "lat": 29.952961,
                "lng": 31.103448,
                "name": "Street 9",
                "stop_order": 5,
                "cumulative_price": 0.00
            },
            {
                "id": "d596a8b2-5200-4355-b999-6e06e0f56ecd",
                "lat": 29.951253,
                "lng": 31.089522,
                "name": "El Wahat Road",
                "stop_order": 6,
                "cumulative_price": 0.00
            },
            {
                "id": "fbbe1c11-8a01-4456-906b-180a18a89594",
                "lat": 29.961642,
                "lng": 31.089563,
                "name": "Elgiesh Road",
                "stop_order": 7,
                "cumulative_price": 0.00
            },
            {
                "id": "3847626b-1874-400c-844b-03c968a10a18",
                "lat": 30.081428,
                "lng": 31.017028,
                "name": "Near Arab Academy for Science Technology and Maritime Transport University",
                "stop_order": 8,
                "cumulative_price": 0.00
            },
            {
                "id": "7564c8db-0c73-49ed-b53f-32e6a43295aa",
                "lat": 30.078028,
                "lng": 31.013575,
                "name": "Near Bank of Alexandria",
                "stop_order": 9,
                "cumulative_price": 0.00
            },
            {
                "id": "82c3267e-c6d3-4d6b-92a6-57fdb5a9f53c",
                "lat": 30.07626,
                "lng": 31.02053,
                "name": "Opposite HSBC Bank",
                "stop_order": 10,
                "cumulative_price": 0.00
            },
            {
                "id": "76627c08-502f-422e-97bb-b5a398028c0e",
                "lat": 30.065246,
                "lng": 31.022425,
                "name": "Cairo Alexandria Road (Side Road)",
                "stop_order": 11,
                "cumulative_price": 0.00
            },
            {
                "id": "675d5e7f-a0d0-4eb2-9ea5-d200899b7b4b",
                "lat": 30.065378,
                "lng": 31.0224,
                "name": "Cairo Alexandria Road (Side Road)",
                "stop_order": 12,
                "cumulative_price": 0.00
            }
        ]
    },
    {
        "id": "7d3f6d5d-6f97-44b8-a004-4264d659d002",
        "name": "Haram → Smart Village #3",
        "description": "Imported route: Haram_Smart Village19184. 15 stops, ~33.8 km.",
        "estimated_duration_mins": 76,
        "paired_return_route_id": null,
        "bookings_open": true,
        "route_visibility": "public",
        "route_stops": [
            {
                "id": "6347cc91-d02e-4240-8c35-bf7d05ababe0",
                "lat": 30.013485,
                "lng": 31.217213,
                "name": "El Bahr El Aazam Street",
                "stop_order": 0,
                "cumulative_price": 0.00
            },
            {
                "id": "c7179f27-f2f5-4b8b-baf6-6f61084c93df",
                "lat": 30.013473,
                "lng": 31.217217,
                "name": "El Bahr El Aazam Street",
                "stop_order": 1,
                "cumulative_price": 0.00
            },
            {
                "id": "13d4d570-b6af-4e8e-9892-f24b4b9cc950",
                "lat": 29.99655,
                "lng": 31.20357,
                "name": "El Kasabgi Street",
                "stop_order": 2,
                "cumulative_price": 0.00
            },
            {
                "id": "e401f5c9-ddb0-4f0f-94f4-206e8672a156",
                "lat": 29.986934,
                "lng": 31.188295,
                "name": "Ring Road",
                "stop_order": 3,
                "cumulative_price": 0.00
            },
            {
                "id": "98dda990-b9b7-4320-a184-521258699465",
                "lat": 29.977472,
                "lng": 31.164113,
                "name": "Al Maryotia Street",
                "stop_order": 4,
                "cumulative_price": 0.00
            },
            {
                "id": "6fe099ac-8e71-4243-ac89-614c7f500d7f",
                "lat": 29.982393,
                "lng": 31.156625,
                "name": "Al Maryotia Street",
                "stop_order": 5,
                "cumulative_price": 0.00
            },
            {
                "id": "8b82ce10-6913-47c9-87ac-536e0724ebcd",
                "lat": 29.98734,
                "lng": 31.15126,
                "name": "Al Maryotia Street",
                "stop_order": 6,
                "cumulative_price": 0.00
            },
            {
                "id": "e879a62e-a468-4ce1-9db5-6bd49f93069a",
                "lat": 29.993546,
                "lng": 31.146797,
                "name": "King Faisal Street",
                "stop_order": 7,
                "cumulative_price": 0.00
            },
            {
                "id": "f048a91b-ab20-4ee0-b0b0-4a1408259c0e",
                "lat": 29.99201,
                "lng": 31.14001,
                "name": "King Faisal Street",
                "stop_order": 8,
                "cumulative_price": 0.00
            },
            {
                "id": "97b14402-f173-48e2-a21e-ee2146d90a10",
                "lat": 29.990587,
                "lng": 31.132735,
                "name": "El Mansoureya Road",
                "stop_order": 9,
                "cumulative_price": 0.00
            },
            {
                "id": "75df1509-4305-475a-9012-e61f63cf0cab",
                "lat": 30.06184,
                "lng": 31.029156,
                "name": "Cairo Alexandria Desert Road",
                "stop_order": 10,
                "cumulative_price": 0.00
            },
            {
                "id": "90ca7bdd-2e18-4100-8c9a-e41187ec3476",
                "lat": 30.068242,
                "lng": 31.020899,
                "name": "Xceed BPO",
                "stop_order": 11,
                "cumulative_price": 0.00
            },
            {
                "id": "9084e946-1250-4d3e-8282-72436a05c608",
                "lat": 30.076525,
                "lng": 31.022705,
                "name": "Smart Village School",
                "stop_order": 12,
                "cumulative_price": 0.00
            },
            {
                "id": "a84751c9-9d67-414f-b99f-f7b15d8c8ce1",
                "lat": 30.07892,
                "lng": 31.01564,
                "name": "EGX - The Egyptian Exchange",
                "stop_order": 13,
                "cumulative_price": 0.00
            },
            {
                "id": "de82c1f9-368c-4657-b7f0-34fbc3fec57e",
                "lat": 30.07892,
                "lng": 31.01564,
                "name": "EGX - The Egyptian Exchange",
                "stop_order": 14,
                "cumulative_price": 0.00
            }
        ]
    },
    {
        "id": "ca2f61fa-00b5-4c73-ac10-42196f95c69c",
        "name": "Haram → Smart Village #4",
        "description": "Imported route: Haram_Smart Village19367. 18 stops, ~36.7 km.",
        "estimated_duration_mins": 93,
        "paired_return_route_id": null,
        "bookings_open": true,
        "route_visibility": "public",
        "route_stops": [
            {
                "id": "d2b975ac-1633-4a04-97ab-2e4c8ff0b61b",
                "lat": 30.022932,
                "lng": 31.217922,
                "name": "Nile Street",
                "stop_order": 0,
                "cumulative_price": 0.00
            },
            {
                "id": "c7c947cf-20d2-4f05-8db5-519b40e81753",
                "lat": 30.022949,
                "lng": 31.217925,
                "name": "Nile Street",
                "stop_order": 1,
                "cumulative_price": 0.00
            },
            {
                "id": "ebc2f615-1794-4180-94f7-833b1df000d8",
                "lat": 30.026731,
                "lng": 31.210568,
                "name": "Cairo University Road",
                "stop_order": 2,
                "cumulative_price": 0.00
            },
            {
                "id": "0f206fdd-9d86-44b0-9090-24c17d767c01",
                "lat": 30.015151,
                "lng": 31.211138,
                "name": "Al Haram Street",
                "stop_order": 3,
                "cumulative_price": 0.00
            },
            {
                "id": "7b508991-8bc3-45fe-a6ac-e157745e03c4",
                "lat": 30.008142,
                "lng": 31.197621,
                "name": "Al Haram Street",
                "stop_order": 4,
                "cumulative_price": 0.00
            },
            {
                "id": "83f92f07-9680-4dcf-bbd2-c20627ed6cbf",
                "lat": 30.0012,
                "lng": 31.19228,
                "name": "Khatem El Morsaleen Street",
                "stop_order": 5,
                "cumulative_price": 0.00
            },
            {
                "id": "7500be82-4cf2-4e91-94ec-73284874b22d",
                "lat": 29.99912,
                "lng": 31.18675,
                "name": "Khatem El Morsaleen Street",
                "stop_order": 6,
                "cumulative_price": 0.00
            },
            {
                "id": "6cdb14aa-d94b-489a-bf95-7ce65d2e4c5d",
                "lat": 29.99585,
                "lng": 31.17912,
                "name": "Tersa Street",
                "stop_order": 7,
                "cumulative_price": 0.00
            },
            {
                "id": "1ec8df27-396a-4c50-8535-3072121b5163",
                "lat": 29.993846,
                "lng": 31.172721,
                "name": "Tersa Street",
                "stop_order": 8,
                "cumulative_price": 0.00
            },
            {
                "id": "2a642b3b-d885-4e74-8a70-189e36da16ee",
                "lat": 29.99139,
                "lng": 31.16583,
                "name": "Tersa Street",
                "stop_order": 9,
                "cumulative_price": 0.00
            },
            {
                "id": "80bc6924-3bac-4a67-b121-a0bda1297ec2",
                "lat": 29.98889,
                "lng": 31.15895,
                "name": "Tersa Street",
                "stop_order": 10,
                "cumulative_price": 0.00
            },
            {
                "id": "942e1f71-9675-4357-961c-a6e0ea4df64b",
                "lat": 29.989149,
                "lng": 31.150393,
                "name": "Ring Road",
                "stop_order": 11,
                "cumulative_price": 0.00
            },
            {
                "id": "14aada64-e2fb-45b5-9977-a3e6368ae3b5",
                "lat": 29.99958,
                "lng": 31.14294,
                "name": "El Maryotia Street",
                "stop_order": 12,
                "cumulative_price": 0.00
            },
            {
                "id": "90baf4bd-90d2-4a68-9d00-7a9ec33e67d4",
                "lat": 30.0635,
                "lng": 31.025434,
                "name": "Mobil Gas Station (Near Dandy Mall)",
                "stop_order": 13,
                "cumulative_price": 0.00
            },
            {
                "id": "545acf2e-5fec-489b-be11-ecb9ed0b187d",
                "lat": 30.07446,
                "lng": 31.02296,
                "name": "EFG Hermes",
                "stop_order": 14,
                "cumulative_price": 0.00
            },
            {
                "id": "43a98fde-a430-4cff-8e02-d8ddfff18fe5",
                "lat": 30.072826,
                "lng": 31.015325,
                "name": "Orange Egypt",
                "stop_order": 15,
                "cumulative_price": 0.00
            },
            {
                "id": "d946f36e-2dfa-4cb1-8ac9-f9415abfdb61",
                "lat": 30.08147,
                "lng": 31.01712,
                "name": "Near Arab Academy for Science Technology and Maritime Transport University",
                "stop_order": 16,
                "cumulative_price": 0.00
            },
            {
                "id": "116db104-9138-458d-b566-b2fc18b4ad10",
                "lat": 30.070529,
                "lng": 31.029332,
                "name": "Cairo Alexandria Desert Road",
                "stop_order": 17,
                "cumulative_price": 0.00
            }
        ]
    },
    {
        "id": "c858b12d-b8f5-42f6-a034-1d5a99cf8e2b",
        "name": "Haram → Smart Village #5",
        "description": "Imported route: Haram_Smart Village19588. 16 stops, ~33.4 km.",
        "estimated_duration_mins": 82,
        "paired_return_route_id": null,
        "bookings_open": true,
        "route_visibility": "public",
        "route_stops": [
            {
                "id": "02c79445-9154-4627-96af-17a5f0eb407a",
                "lat": 30.068133,
                "lng": 31.02065,
                "name": "Ylolabs",
                "stop_order": 14,
                "cumulative_price": 0.00
            },
            {
                "id": "fff6b171-30c4-442a-ab86-0fd64fe9c429",
                "lat": 30.064938,
                "lng": 31.02499,
                "name": "Egypt Post - Smart Village Post Office",
                "stop_order": 15,
                "cumulative_price": 0.00
            },
            {
                "id": "9becd342-8e34-47cd-aac6-7b006e155ee3",
                "lat": 30.003284,
                "lng": 31.172374,
                "name": "King Faisal Street",
                "stop_order": 5,
                "cumulative_price": 0.00
            },
            {
                "id": "4e2d2192-40a3-4153-a20d-9d8c532241ec",
                "lat": 30.001571,
                "lng": 31.167705,
                "name": "King Faisal Street",
                "stop_order": 6,
                "cumulative_price": 0.00
            },
            {
                "id": "4c213a07-e005-49a0-8952-ae077e1c7f6b",
                "lat": 29.997986,
                "lng": 31.158347,
                "name": "King Faisal Street",
                "stop_order": 7,
                "cumulative_price": 0.00
            },
            {
                "id": "d24e347c-3424-466e-87af-63056d781cbd",
                "lat": 29.99431,
                "lng": 31.14834,
                "name": "King Faisal Street",
                "stop_order": 8,
                "cumulative_price": 0.00
            },
            {
                "id": "f0e51b0b-699c-4964-a382-45b261428610",
                "lat": 29.99221,
                "lng": 31.14121,
                "name": "King Faisal Street",
                "stop_order": 9,
                "cumulative_price": 0.00
            },
            {
                "id": "8f42db4d-3cc3-46d3-a8be-4cebf21ad85e",
                "lat": 29.990538,
                "lng": 31.135251,
                "name": "King Faisal Street",
                "stop_order": 10,
                "cumulative_price": 0.00
            },
            {
                "id": "a7f412cb-e762-4f64-8cce-edbe14374fac",
                "lat": 30.061155,
                "lng": 31.029364,
                "name": "Cairo Alexandria Desert Road",
                "stop_order": 11,
                "cumulative_price": 0.00
            },
            {
                "id": "607bc373-c7a6-4536-86b4-93d6fb7be8c8",
                "lat": 30.078264,
                "lng": 31.022117,
                "name": "Opposite Huawei Smart Village",
                "stop_order": 12,
                "cumulative_price": 0.00
            },
            {
                "id": "eb2c4a59-29b7-4370-8455-c405ce592f9f",
                "lat": 30.08134,
                "lng": 31.017288,
                "name": "Near Arab Academy for Science Technology and Maritime Transport University",
                "stop_order": 13,
                "cumulative_price": 0.00
            },
            {
                "id": "2185ec6e-d73c-44e4-92a7-52c01dc1201c",
                "lat": 29.999126,
                "lng": 31.204676,
                "name": "Tersa Street",
                "stop_order": 0,
                "cumulative_price": 0.00
            },
            {
                "id": "1eaf3cf0-2a9a-46fe-8c3a-36b9de725672",
                "lat": 29.999126,
                "lng": 31.204676,
                "name": "Tersa Street",
                "stop_order": 1,
                "cumulative_price": 0.00
            },
            {
                "id": "a60272a2-9be4-4ff3-bed4-929286d39a3e",
                "lat": 30.009121,
                "lng": 31.204161,
                "name": "Tereat Elzomor Street",
                "stop_order": 2,
                "cumulative_price": 0.00
            },
            {
                "id": "268d869f-4ed3-4568-9d6b-d64ed4703082",
                "lat": 30.008146,
                "lng": 31.197609,
                "name": "Al Haram Street",
                "stop_order": 3,
                "cumulative_price": 0.00
            },
            {
                "id": "85e977cd-21f9-432d-88e4-e225dfbfbb72",
                "lat": 30.008747,
                "lng": 31.186471,
                "name": "King Faisal Street",
                "stop_order": 4,
                "cumulative_price": 0.00
            }
        ]
    },
    {
        "id": "e30b7092-fe52-47d4-9fac-8530d99c0522",
        "name": "Heliopolis → Smart Village #1",
        "description": "Imported route: Heliopolis_Smart Village26056. 15 stops, ~48.1 km.",
        "estimated_duration_mins": 90,
        "paired_return_route_id": null,
        "bookings_open": true,
        "route_visibility": "public",
        "route_stops": [
            {
                "id": "3cd2dab1-c8f5-47d6-9cb8-942ef8eac5fe",
                "lat": 30.08772,
                "lng": 31.32896,
                "name": "El Orouba Street",
                "stop_order": 1,
                "cumulative_price": 0.00
            },
            {
                "id": "4558c660-c307-4d20-b670-b98fbf592e8c",
                "lat": 30.085267,
                "lng": 31.337314,
                "name": "El Thawra Street",
                "stop_order": 2,
                "cumulative_price": 0.00
            },
            {
                "id": "829056ea-feb2-4ac7-b053-7dfc1180b460",
                "lat": 30.090158,
                "lng": 31.341703,
                "name": "El Nozha Street",
                "stop_order": 3,
                "cumulative_price": 0.00
            },
            {
                "id": "d72efa58-68f7-4c0f-9162-0c87f868e354",
                "lat": 30.09992,
                "lng": 31.34215,
                "name": "Othman Ibn Affan Street",
                "stop_order": 4,
                "cumulative_price": 0.00
            },
            {
                "id": "d0d553f5-887e-4a6d-ae22-13e1983c0e00",
                "lat": 30.101585,
                "lng": 31.332424,
                "name": "Abou Bakr El Sedeek Street",
                "stop_order": 5,
                "cumulative_price": 0.00
            },
            {
                "id": "1da16bd8-9ee9-4865-8010-627ad33a62f7",
                "lat": 30.106009,
                "lng": 31.324914,
                "name": "Abou Bakr El Sedeek Street",
                "stop_order": 6,
                "cumulative_price": 0.00
            },
            {
                "id": "859dbbb8-1f6b-4f73-b977-1547c748f903",
                "lat": 30.11523,
                "lng": 31.30707,
                "name": "El Horeya Street",
                "stop_order": 7,
                "cumulative_price": 0.00
            },
            {
                "id": "64f74252-b441-44da-b0c4-deb4085757ba",
                "lat": 30.11382,
                "lng": 31.29226,
                "name": "El Kablat Street",
                "stop_order": 8,
                "cumulative_price": 0.00
            },
            {
                "id": "457a1fbd-1370-4172-a54d-b18ae9db0586",
                "lat": 30.111963,
                "lng": 31.282216,
                "name": "Port Saeed Street",
                "stop_order": 9,
                "cumulative_price": 0.00
            },
            {
                "id": "ee56dca6-7ecd-43aa-878c-66afe7630375",
                "lat": 30.068237,
                "lng": 31.020986,
                "name": "Xceed BPO",
                "stop_order": 10,
                "cumulative_price": 0.00
            },
            {
                "id": "d9c44d41-1f13-453f-b590-5687599cddb1",
                "lat": 30.07296,
                "lng": 31.01859,
                "name": "Etisalat Misr Telecommunications Service Provider",
                "stop_order": 11,
                "cumulative_price": 0.00
            },
            {
                "id": "d3981d72-b231-4e63-a986-ea1211f3eb42",
                "lat": 30.078648,
                "lng": 31.019501,
                "name": "Information Technology Industry Development Agency (ITIDA)",
                "stop_order": 12,
                "cumulative_price": 0.00
            },
            {
                "id": "54a91a35-c158-41dc-89b8-2a8113b308eb",
                "lat": 30.08772,
                "lng": 31.32896,
                "name": "El Orouba Street",
                "stop_order": 0,
                "cumulative_price": 0.00
            },
            {
                "id": "3e2260fd-6d30-4b33-80d6-182c4dc5b7fb",
                "lat": 30.076402,
                "lng": 31.0226,
                "name": "Cairo Alexandria Desert Road",
                "stop_order": 13,
                "cumulative_price": 0.00
            },
            {
                "id": "8b9ac939-50de-4de4-8186-2b50b1f7b3c6",
                "lat": 30.071226,
                "lng": 31.03001,
                "name": "Cairo Alexandria Desert Road",
                "stop_order": 14,
                "cumulative_price": 0.00
            }
        ]
    },
    {
        "id": "e8218f78-6407-4cbb-bf42-2a77fc459a37",
        "name": "Heliopolis → Smart Village #2",
        "description": "Imported route: Heliopolis_Smart Village26240. 21 stops, ~52.7 km.",
        "estimated_duration_mins": 112,
        "paired_return_route_id": null,
        "bookings_open": true,
        "route_visibility": "public",
        "route_stops": [
            {
                "id": "1d3405b4-8a84-4db4-bddb-0174035fb23b",
                "lat": 30.048899,
                "lng": 31.232571,
                "name": "Abdel Moneim Riad",
                "stop_order": 16,
                "cumulative_price": 0.00
            },
            {
                "id": "96449b8e-fd7f-4bf0-9e15-1a9ab1a3ae78",
                "lat": 30.077982,
                "lng": 31.013674,
                "name": "Near Bank of Alexandria",
                "stop_order": 17,
                "cumulative_price": 0.00
            },
            {
                "id": "76b9744a-af63-41ec-b4d8-170d6501c25c",
                "lat": 30.072869,
                "lng": 31.015286,
                "name": "Orange Egypt",
                "stop_order": 18,
                "cumulative_price": 0.00
            },
            {
                "id": "9c330fb9-acc9-4be0-8609-a8ed3112140d",
                "lat": 30.065407,
                "lng": 31.022164,
                "name": "Cairo Alexandria Road (Side Road)",
                "stop_order": 19,
                "cumulative_price": 0.00
            },
            {
                "id": "389aac92-eb66-4c36-849d-f0182e028e3a",
                "lat": 30.065477,
                "lng": 31.022034,
                "name": "Cairo Alexandria Road (Side Road)",
                "stop_order": 20,
                "cumulative_price": 0.00
            },
            {
                "id": "1bba1239-b0ba-43ed-a10b-4c4d466ee73b",
                "lat": 30.102229,
                "lng": 31.381165,
                "name": "Abd El Hameed Badawi Street",
                "stop_order": 0,
                "cumulative_price": 0.00
            },
            {
                "id": "d5b31bf0-4488-431f-960d-61149c67517a",
                "lat": 30.102229,
                "lng": 31.381165,
                "name": "Abd El Hameed Badawi Street",
                "stop_order": 1,
                "cumulative_price": 0.00
            },
            {
                "id": "9e407429-f401-4255-9768-992f42ed6783",
                "lat": 30.10677,
                "lng": 31.37575,
                "name": "Abd El Hameed Badawi Street",
                "stop_order": 2,
                "cumulative_price": 0.00
            },
            {
                "id": "33b32ef8-9bc3-4362-97b7-f26faa69c6a4",
                "lat": 30.117702,
                "lng": 31.360591,
                "name": "Abd El Hameed Badawi Street",
                "stop_order": 3,
                "cumulative_price": 0.00
            },
            {
                "id": "b384d8c3-587e-4172-a9c2-8eff79fe1b46",
                "lat": 30.115588,
                "lng": 31.351771,
                "name": "El Hegaz Street",
                "stop_order": 4,
                "cumulative_price": 0.00
            },
            {
                "id": "7da19673-f509-47ee-91c7-e7ab9bcd9f4f",
                "lat": 30.110325,
                "lng": 31.342919,
                "name": "El Hegaz Street",
                "stop_order": 5,
                "cumulative_price": 0.00
            },
            {
                "id": "11dae6f1-89cd-4ee8-bc45-bc1590747084",
                "lat": 30.10668,
                "lng": 31.33492,
                "name": "El Hegaz Street",
                "stop_order": 6,
                "cumulative_price": 0.00
            },
            {
                "id": "a5b55cdd-ef06-453d-82fb-f6adf3de04db",
                "lat": 30.103471,
                "lng": 31.327895,
                "name": "El Hegaz Street",
                "stop_order": 7,
                "cumulative_price": 0.00
            },
            {
                "id": "5bdd662f-e875-4233-b8fd-d60d59cf641e",
                "lat": 30.09757,
                "lng": 31.32059,
                "name": "El Hegaz Street",
                "stop_order": 8,
                "cumulative_price": 0.00
            },
            {
                "id": "df01b571-b661-4b0d-a067-12d8560fb180",
                "lat": 30.093808,
                "lng": 31.315283,
                "name": "El Hegaz Street",
                "stop_order": 9,
                "cumulative_price": 0.00
            },
            {
                "id": "51709da1-d87d-414c-8641-ea93e1e600c7",
                "lat": 30.08729,
                "lng": 31.30879,
                "name": "El Khalifa El Mamoun Street",
                "stop_order": 10,
                "cumulative_price": 0.00
            },
            {
                "id": "f3e22c5b-25a2-4e26-8fa9-8d6afc8b664a",
                "lat": 30.08681,
                "lng": 31.3022,
                "name": "El Khalifa El Mamoun Street",
                "stop_order": 11,
                "cumulative_price": 0.00
            },
            {
                "id": "b01d2374-07b8-4206-bff6-352ca6d0c537",
                "lat": 30.084505,
                "lng": 31.295762,
                "name": "El Khalifa El Mamoun Street",
                "stop_order": 12,
                "cumulative_price": 0.00
            },
            {
                "id": "2d479014-2853-4ccc-85f1-08e94e5efd44",
                "lat": 30.076,
                "lng": 31.28725,
                "name": "El Khalifa El Mamoun Street",
                "stop_order": 13,
                "cumulative_price": 0.00
            },
            {
                "id": "f6abb507-08de-451b-9021-068f12a23b93",
                "lat": 30.076683,
                "lng": 31.277321,
                "name": "Lotfy El Sayed Street",
                "stop_order": 14,
                "cumulative_price": 0.00
            },
            {
                "id": "ad6d6921-d1a0-48f7-864c-4b1788b0503b",
                "lat": 30.072772,
                "lng": 31.270694,
                "name": "Lotfy El Sayed Street",
                "stop_order": 15,
                "cumulative_price": 0.00
            }
        ]
    },
    {
        "id": "45fddf85-7044-449b-ad09-d8ff4c68b3e6",
        "name": "Heliopolis → Smart Village #3",
        "description": "Imported route: Heliopolis_Smart Village26497. 19 stops, ~52.9 km.",
        "estimated_duration_mins": 108,
        "paired_return_route_id": null,
        "bookings_open": true,
        "route_visibility": "public",
        "route_stops": [
            {
                "id": "aa365f08-bac1-416a-a613-9eb5a62303c5",
                "lat": 30.14198,
                "lng": 31.39959,
                "name": "Gesr El Suez Street",
                "stop_order": 0,
                "cumulative_price": 0.00
            },
            {
                "id": "fc803e14-7287-45a0-9ba6-5f4fbef8eb65",
                "lat": 30.14198,
                "lng": 31.39959,
                "name": "Gesr El Suez Street",
                "stop_order": 1,
                "cumulative_price": 0.00
            },
            {
                "id": "b19656f7-978a-4fd0-84bf-a4f1d960c3b7",
                "lat": 30.13963,
                "lng": 31.39137,
                "name": "Gesr El Suez Street",
                "stop_order": 2,
                "cumulative_price": 0.00
            },
            {
                "id": "4797c09e-b8bf-456c-8e87-4d2c8e796080",
                "lat": 30.134816,
                "lng": 31.383883,
                "name": "Gesr El Suez Street",
                "stop_order": 3,
                "cumulative_price": 0.00
            },
            {
                "id": "6216f6bc-55a9-4287-be16-c0f4f07e38a2",
                "lat": 30.13155,
                "lng": 31.37441,
                "name": "Gesr El Suez Street",
                "stop_order": 4,
                "cumulative_price": 0.00
            },
            {
                "id": "e35412f2-e672-49c0-bd87-320998a18f7e",
                "lat": 30.12909,
                "lng": 31.3671,
                "name": "Gesr El Suez Street",
                "stop_order": 5,
                "cumulative_price": 0.00
            },
            {
                "id": "c02c74e0-9d1e-48e1-88dc-932db2ce7304",
                "lat": 30.12813,
                "lng": 31.35946,
                "name": "Gesr El Suez Street",
                "stop_order": 6,
                "cumulative_price": 0.00
            },
            {
                "id": "cc9e147b-5ecf-44e2-ae9c-23866663c672",
                "lat": 30.124028,
                "lng": 31.346486,
                "name": "Gesr El Suez Street",
                "stop_order": 7,
                "cumulative_price": 0.00
            },
            {
                "id": "519cf548-c77e-4b21-953b-1678714f15c5",
                "lat": 30.11819,
                "lng": 31.338631,
                "name": "Gesr El Suez Street",
                "stop_order": 8,
                "cumulative_price": 0.00
            },
            {
                "id": "7584bed2-c55b-46e6-8e93-a5994d0ac16a",
                "lat": 30.114053,
                "lng": 31.333429,
                "name": "Gesr El Suez Street",
                "stop_order": 9,
                "cumulative_price": 0.00
            },
            {
                "id": "031e8da1-627d-42d9-9138-d1947e00e491",
                "lat": 30.10402,
                "lng": 31.32112,
                "name": "Gesr El Suez Street",
                "stop_order": 10,
                "cumulative_price": 0.00
            },
            {
                "id": "a2ebe252-216b-41f8-8551-dbab8901333d",
                "lat": 30.09944,
                "lng": 31.31546,
                "name": "Gesr El Suez Street",
                "stop_order": 11,
                "cumulative_price": 0.00
            },
            {
                "id": "dec47833-2a23-4310-ab9a-173b37ed853e",
                "lat": 30.089291,
                "lng": 31.303169,
                "name": "Gesr El Suez Street",
                "stop_order": 12,
                "cumulative_price": 0.00
            },
            {
                "id": "41881949-08a4-42a5-875d-fd03bb848049",
                "lat": 30.08587,
                "lng": 31.29757,
                "name": "El Khalifa El Mamoun Street",
                "stop_order": 13,
                "cumulative_price": 0.00
            },
            {
                "id": "bc7db317-a35d-4fd5-9954-48cbb6857b4c",
                "lat": 30.089591,
                "lng": 31.285636,
                "name": "Sekat El Walili Street",
                "stop_order": 14,
                "cumulative_price": 0.00
            },
            {
                "id": "5ec306ae-6a36-492b-80b8-5b43d435ea9a",
                "lat": 30.081166,
                "lng": 31.020023,
                "name": "Opposite Concordia",
                "stop_order": 15,
                "cumulative_price": 0.00
            },
            {
                "id": "7bf4a774-bdb8-48a4-92da-7fc465c6dd26",
                "lat": 30.076427,
                "lng": 31.020696,
                "name": "HSBC Bank",
                "stop_order": 16,
                "cumulative_price": 0.00
            },
            {
                "id": "bdf87842-48c4-446d-9463-6cdb02683613",
                "lat": 30.068113,
                "lng": 31.020718,
                "name": "Ylolabs",
                "stop_order": 17,
                "cumulative_price": 0.00
            },
            {
                "id": "ed33d261-1397-4514-af1b-7ab7a115c866",
                "lat": 30.064836,
                "lng": 31.02485,
                "name": "Egypt Post - Smart Village Post Office",
                "stop_order": 18,
                "cumulative_price": 0.00
            }
        ]
    },
    {
        "id": "cf995ef9-2b35-495e-acbf-6b2652eaae46",
        "name": "Helwan → Smart Village #1",
        "description": "Imported route: Helwan_Smart Village28224. 21 stops, ~66.2 km.",
        "estimated_duration_mins": 128,
        "paired_return_route_id": null,
        "bookings_open": true,
        "route_visibility": "public",
        "route_stops": [
            {
                "id": "11b5a327-4841-4c61-9777-4d5a024dbb1a",
                "lat": 29.84262,
                "lng": 31.30525,
                "name": "Omar Ibn Abd El Aziz Street",
                "stop_order": 8,
                "cumulative_price": 0.00
            },
            {
                "id": "385d060c-5ef3-4b10-b499-26ab30f9410f",
                "lat": 29.84611,
                "lng": 31.297853,
                "name": "Omar Ibn Abd El Aziz Street",
                "stop_order": 9,
                "cumulative_price": 0.00
            },
            {
                "id": "752e6de4-19dd-40e6-8110-4a7fa2842f50",
                "lat": 29.90096,
                "lng": 31.28797,
                "name": "Nile Corniche",
                "stop_order": 14,
                "cumulative_price": 0.00
            },
            {
                "id": "02e6c2ac-bf07-4b62-b800-b7a373a5ed1e",
                "lat": 29.91082,
                "lng": 31.28682,
                "name": "Nile Corniche",
                "stop_order": 15,
                "cumulative_price": 0.00
            },
            {
                "id": "f7734684-6baf-4a95-a9b9-afc1b6007233",
                "lat": 30.076525,
                "lng": 31.022705,
                "name": "Smart Village School",
                "stop_order": 16,
                "cumulative_price": 0.00
            },
            {
                "id": "3cde993c-cca0-4317-9466-229f9c7a1f83",
                "lat": 29.84094,
                "lng": 31.35767,
                "name": "Autostorad Street",
                "stop_order": 0,
                "cumulative_price": 0.00
            },
            {
                "id": "f00c22d7-3946-415d-a387-9b3fa627c78c",
                "lat": 29.84094,
                "lng": 31.35767,
                "name": "Autostorad Street",
                "stop_order": 1,
                "cumulative_price": 0.00
            },
            {
                "id": "5bf341d0-a5bd-429b-8d97-189c375a27f0",
                "lat": 29.834071,
                "lng": 31.35591,
                "name": "Autostorad Street",
                "stop_order": 2,
                "cumulative_price": 0.00
            },
            {
                "id": "280a08c3-0508-4fdc-8587-553f7dab7d0e",
                "lat": 29.826365,
                "lng": 31.353947,
                "name": "Autostorad Street",
                "stop_order": 3,
                "cumulative_price": 0.00
            },
            {
                "id": "0efd9d2c-48a9-4097-abe0-1755db075735",
                "lat": 29.820131,
                "lng": 31.352337,
                "name": "Helwan El Kurimat Road",
                "stop_order": 4,
                "cumulative_price": 0.00
            },
            {
                "id": "f65bb8b3-4efd-47a8-9c9e-2fae6b71c8c3",
                "lat": 29.843116,
                "lng": 31.333972,
                "name": "Martyrs' Square",
                "stop_order": 5,
                "cumulative_price": 0.00
            },
            {
                "id": "14d6d330-ff26-42c3-81a6-b19ee06d94a9",
                "lat": 29.839543,
                "lng": 31.323762,
                "name": "Omar Ibn Abd El Aziz Street",
                "stop_order": 6,
                "cumulative_price": 0.00
            },
            {
                "id": "36e83785-b9fb-4824-9bf2-267d57adc4df",
                "lat": 29.840158,
                "lng": 31.311692,
                "name": "Omar Ibn Abd El Aziz Street",
                "stop_order": 7,
                "cumulative_price": 0.00
            },
            {
                "id": "4307515c-7bbc-40a6-a1f6-34d4f31e3b8e",
                "lat": 29.86499,
                "lng": 31.291648,
                "name": "Nile Corniche",
                "stop_order": 10,
                "cumulative_price": 0.00
            },
            {
                "id": "001c5d1b-059c-4d67-b77b-08570be17520",
                "lat": 29.874853,
                "lng": 31.289269,
                "name": "Nile Corniche",
                "stop_order": 11,
                "cumulative_price": 0.00
            },
            {
                "id": "7ebeeabe-c66f-44f4-b532-e9a5fcdeed2a",
                "lat": 29.88368,
                "lng": 31.28924,
                "name": "Nile Corniche",
                "stop_order": 12,
                "cumulative_price": 0.00
            },
            {
                "id": "905e097b-1540-4254-b46b-882face20313",
                "lat": 29.892339,
                "lng": 31.288796,
                "name": "Nile Corniche",
                "stop_order": 13,
                "cumulative_price": 0.00
            },
            {
                "id": "333e965d-d334-488f-9adf-1a91e3330be8",
                "lat": 30.081512,
                "lng": 31.01999,
                "name": "Opposite Concordia",
                "stop_order": 17,
                "cumulative_price": 0.00
            },
            {
                "id": "1ff37e9d-766c-463c-a2a6-fee4d24810e5",
                "lat": 30.07779,
                "lng": 31.013522,
                "name": "Smart Village Conference Center",
                "stop_order": 18,
                "cumulative_price": 0.00
            },
            {
                "id": "13448e1b-513e-4611-a4c6-271ff844f995",
                "lat": 30.065413,
                "lng": 31.022094,
                "name": "Cairo Alexandria Road (Side Road)",
                "stop_order": 19,
                "cumulative_price": 0.00
            },
            {
                "id": "630f505b-e72b-48b8-9987-9ecc9415d8fe",
                "lat": 30.065511,
                "lng": 31.021946,
                "name": "Cairo Alexandria Road (Side Road)",
                "stop_order": 20,
                "cumulative_price": 0.00
            }
        ]
    },
    {
        "id": "db25519e-b7ec-4562-b9ec-9d945394d9f4",
        "name": "Helwan → Smart Village #2",
        "description": "Imported route: Helwan_Smart Village28481. 17 stops, ~57.7 km.",
        "estimated_duration_mins": 103,
        "paired_return_route_id": null,
        "bookings_open": true,
        "route_visibility": "public",
        "route_stops": [
            {
                "id": "cc56c9db-928d-4d7b-a475-3c1be2af5ea6",
                "lat": 29.843184,
                "lng": 31.332728,
                "name": "Borhan Street",
                "stop_order": 0,
                "cumulative_price": 0.00
            },
            {
                "id": "39b9c698-bda5-412b-8437-76c9edad1d74",
                "lat": 29.843182,
                "lng": 31.332683,
                "name": "Borhan Street",
                "stop_order": 1,
                "cumulative_price": 0.00
            },
            {
                "id": "67dea8dc-e222-4e32-bb03-491f88c4594f",
                "lat": 29.846277,
                "lng": 31.331384,
                "name": "Mahmoud Khater Street",
                "stop_order": 2,
                "cumulative_price": 0.00
            },
            {
                "id": "cbdbb86c-fff3-4c37-aca2-d82bbbb4643a",
                "lat": 29.8495,
                "lng": 31.32524,
                "name": "Rael Street",
                "stop_order": 3,
                "cumulative_price": 0.00
            },
            {
                "id": "6b009e38-4fc3-4f00-9a32-6ed7a8522fed",
                "lat": 29.85601,
                "lng": 31.32504,
                "name": "Rael Street",
                "stop_order": 4,
                "cumulative_price": 0.00
            },
            {
                "id": "45946b56-f45f-4b84-8df6-76df7d4e1d9e",
                "lat": 29.862612,
                "lng": 31.324167,
                "name": "Mansour Street",
                "stop_order": 5,
                "cumulative_price": 0.00
            },
            {
                "id": "8a21b922-3c25-4f00-8a47-a53cba3273ef",
                "lat": 29.86962,
                "lng": 31.31967,
                "name": "Mansour Street",
                "stop_order": 6,
                "cumulative_price": 0.00
            },
            {
                "id": "21e7787c-40ae-48ae-b094-7bae78d0b053",
                "lat": 29.881,
                "lng": 31.31324,
                "name": "El Nasr Company Street",
                "stop_order": 7,
                "cumulative_price": 0.00
            },
            {
                "id": "de02c025-ada5-4345-b7b9-83556c3e99bf",
                "lat": 29.888175,
                "lng": 31.311528,
                "name": "El Nasr Company Street",
                "stop_order": 8,
                "cumulative_price": 0.00
            },
            {
                "id": "c9aa0c88-9e2e-43be-8bbb-ec1d23185e54",
                "lat": 29.898085,
                "lng": 31.313153,
                "name": "Autostorad El Nasr Street",
                "stop_order": 9,
                "cumulative_price": 0.00
            },
            {
                "id": "dee16121-d458-413c-88ea-59713106862c",
                "lat": 29.904931,
                "lng": 31.307909,
                "name": "Autostorad El Nasr Street",
                "stop_order": 10,
                "cumulative_price": 0.00
            },
            {
                "id": "b19cea67-5dd4-481a-9b95-e8b4d07a8b8d",
                "lat": 29.910096,
                "lng": 31.302196,
                "name": "Autostorad El Nasr Street",
                "stop_order": 11,
                "cumulative_price": 0.00
            },
            {
                "id": "4b05d4e3-5b53-4243-80dd-e2ee8ee81916",
                "lat": 30.061155,
                "lng": 31.029364,
                "name": "Cairo Alexandria Desert Road",
                "stop_order": 12,
                "cumulative_price": 0.00
            },
            {
                "id": "b62026f2-b78a-4700-9c66-63f27f2f3762",
                "lat": 30.081011,
                "lng": 31.020254,
                "name": "Concordia",
                "stop_order": 13,
                "cumulative_price": 0.00
            },
            {
                "id": "41ccdcba-dde1-40b9-b46b-41399b1551d3",
                "lat": 30.077816,
                "lng": 31.013654,
                "name": "Smart Village Conference Center",
                "stop_order": 14,
                "cumulative_price": 0.00
            },
            {
                "id": "2840b46c-e315-48b3-89d8-a99158d4d225",
                "lat": 30.065294,
                "lng": 31.02223,
                "name": "Cairo Alexandria Road (Side Road)",
                "stop_order": 15,
                "cumulative_price": 0.00
            },
            {
                "id": "60229b41-d920-4219-9dcd-6a7ab3d0efb5",
                "lat": 30.065401,
                "lng": 31.02218,
                "name": "Cairo Alexandria Road (Side Road)",
                "stop_order": 16,
                "cumulative_price": 0.00
            }
        ]
    },
    {
        "id": "b2a5c2b4-9896-42ff-bc08-b8e8efc8e6bd",
        "name": "Maadi → New Cairo #1",
        "description": "Imported route: Maadi_New Cairo. 8 stops, ~46.8 km.",
        "estimated_duration_mins": 64,
        "paired_return_route_id": "8243667c-575b-4ed1-b03b-64c2e9aacdef",
        "bookings_open": true,
        "route_visibility": "public",
        "route_stops": [
            {
                "id": "b277b36c-5b6c-4a48-a68e-0ccbb65d7875",
                "lat": 29.9778647,
                "lng": 31.23321274,
                "name": "Egyptian Accreditation Council EGAC",
                "stop_order": 0,
                "cumulative_price": 0.00
            },
            {
                "id": "f6989f30-6169-46ad-9fe3-734b0edd8a76",
                "lat": 29.95745188,
                "lng": 31.25555381,
                "name": "Suez Canal Bank",
                "stop_order": 1,
                "cumulative_price": 0.00
            },
            {
                "id": "e147c2d6-a2d3-40e6-8fbc-c807ed1cf364",
                "lat": 29.9727307,
                "lng": 31.2805096,
                "name": "Metro Market",
                "stop_order": 2,
                "cumulative_price": 0.00
            },
            {
                "id": "039fbf4e-9a16-4105-ae16-60c6e78c1a85",
                "lat": 30.0261646,
                "lng": 31.4422431,
                "name": "Before Jasmine Sq",
                "stop_order": 3,
                "cumulative_price": 0.00
            },
            {
                "id": "6cc561f2-2e3c-46c0-b66c-d5847a3ddf50",
                "lat": 29.99993242,
                "lng": 31.44573479,
                "name": "Mega Mart",
                "stop_order": 4,
                "cumulative_price": 0.00
            },
            {
                "id": "56590438-a484-4e15-a4cf-283907206c42",
                "lat": 29.99905692,
                "lng": 31.46767481,
                "name": "El Nahda Sq",
                "stop_order": 5,
                "cumulative_price": 0.00
            },
            {
                "id": "10f87661-af13-419b-b461-49290f17c602",
                "lat": 29.97072535,
                "lng": 31.54232075,
                "name": "Osa Residence",
                "stop_order": 6,
                "cumulative_price": 0.00
            },
            {
                "id": "62b9c75b-6df2-4046-bd21-c7868c64af8e",
                "lat": 29.96798549,
                "lng": 31.54375562,
                "name": "New Fifth Settlement Bus Station",
                "stop_order": 7,
                "cumulative_price": 0.00
            }
        ]
    },
    {
        "id": "a0e034a1-38a2-4ebc-8142-67320e4708a1",
        "name": "Maadi → Smart Village #1",
        "description": "Imported route: Maadi_Smart Village35145. 15 stops, ~50.4 km.",
        "estimated_duration_mins": 92,
        "paired_return_route_id": null,
        "bookings_open": true,
        "route_visibility": "public",
        "route_stops": [
            {
                "id": "52a9fc97-0efe-4546-808a-e40d30c0a987",
                "lat": 29.981635,
                "lng": 31.33818,
                "name": "Ring Road",
                "stop_order": 0,
                "cumulative_price": 0.00
            },
            {
                "id": "3216abd3-b6b1-41de-9a67-d35b8bcb2104",
                "lat": 29.981635,
                "lng": 31.33818,
                "name": "Ring Road",
                "stop_order": 1,
                "cumulative_price": 0.00
            },
            {
                "id": "05b00bbf-8fc0-4ab0-8692-c85ac1a8e116",
                "lat": 29.96952,
                "lng": 31.32789,
                "name": "Cairo Sweis Road",
                "stop_order": 2,
                "cumulative_price": 0.00
            },
            {
                "id": "2b18bdea-b92a-49e9-bc38-f2843a33e7ed",
                "lat": 29.96888,
                "lng": 31.31884,
                "name": "Cairo Sweis Road",
                "stop_order": 3,
                "cumulative_price": 0.00
            },
            {
                "id": "04e816bd-a979-41f8-8ee1-5e75309d651d",
                "lat": 29.967264,
                "lng": 31.312551,
                "name": "50th Street",
                "stop_order": 4,
                "cumulative_price": 0.00
            },
            {
                "id": "5c4e3594-9214-4565-9bd6-656356fd8273",
                "lat": 29.97954,
                "lng": 31.28966,
                "name": "El Nasr Road",
                "stop_order": 8,
                "cumulative_price": 0.00
            },
            {
                "id": "6e31c7b8-eaed-4852-af53-c561608650c2",
                "lat": 29.962162,
                "lng": 31.301003,
                "name": "Zahraa El Maadi Street",
                "stop_order": 5,
                "cumulative_price": 0.00
            },
            {
                "id": "b976b9e9-307d-43af-808e-e27f24c5d4f9",
                "lat": 29.961284,
                "lng": 31.290236,
                "name": "Zahraa El Maadi Street",
                "stop_order": 6,
                "cumulative_price": 0.00
            },
            {
                "id": "6bff8670-c604-44b4-a66a-9f3d255b8b8b",
                "lat": 29.96932,
                "lng": 31.28885,
                "name": "El Nasr Road",
                "stop_order": 7,
                "cumulative_price": 0.00
            },
            {
                "id": "bf32aa56-ba5a-4004-890f-a418fc2d2ec5",
                "lat": 29.98599,
                "lng": 31.28907,
                "name": "Sakr Qorysh Entrance",
                "stop_order": 9,
                "cumulative_price": 0.00
            },
            {
                "id": "82040c9f-b095-4f84-b36f-d68444373c86",
                "lat": 30.068202,
                "lng": 31.021,
                "name": "Xceed BPO",
                "stop_order": 10,
                "cumulative_price": 0.00
            },
            {
                "id": "7d7871b3-7910-4aeb-ab8f-2ef2c50a5733",
                "lat": 30.07386,
                "lng": 31.01391,
                "name": "Opposite ECG - Engineering Consultants Group",
                "stop_order": 11,
                "cumulative_price": 0.00
            },
            {
                "id": "42108b46-7dd6-485a-8fdf-374f2f21c325",
                "lat": 30.079487,
                "lng": 31.018079,
                "name": "Arab Bank",
                "stop_order": 12,
                "cumulative_price": 0.00
            },
            {
                "id": "8034e185-0ee3-42b2-9fbb-6bdd889768a1",
                "lat": 30.076402,
                "lng": 31.0226,
                "name": "Cairo Alexandria Desert Road",
                "stop_order": 13,
                "cumulative_price": 0.00
            },
            {
                "id": "c75243a6-8402-415a-a357-1c1f864d74d9",
                "lat": 30.071022,
                "lng": 31.029861,
                "name": "Cairo Alexandria Desert Road",
                "stop_order": 14,
                "cumulative_price": 0.00
            }
        ]
    },
    {
        "id": "c3767fef-6c2d-4065-9011-43acffa97442",
        "name": "Maadi → Smart Village #2",
        "description": "Imported route: Maadi_Smart Village35329. 17 stops, ~49.9 km.",
        "estimated_duration_mins": 98,
        "paired_return_route_id": null,
        "bookings_open": true,
        "route_visibility": "public",
        "route_stops": [
            {
                "id": "5cabbf0e-0ed5-423a-a280-7b1656f4cf4b",
                "lat": 29.98052,
                "lng": 31.31735,
                "name": "Carrefour Street",
                "stop_order": 0,
                "cumulative_price": 0.00
            },
            {
                "id": "734081f2-e969-4a8a-a552-295717e3a2b1",
                "lat": 29.98052,
                "lng": 31.31735,
                "name": "Carrefour Street",
                "stop_order": 1,
                "cumulative_price": 0.00
            },
            {
                "id": "9b1843be-a7c7-46e7-a55d-b7ead780603d",
                "lat": 29.98726,
                "lng": 31.30839,
                "name": "Ring Road",
                "stop_order": 2,
                "cumulative_price": 0.00
            },
            {
                "id": "9b0194f2-7c38-41c8-a223-ec6d670dc95b",
                "lat": 29.98908,
                "lng": 31.28618,
                "name": "El Nasr Road",
                "stop_order": 3,
                "cumulative_price": 0.00
            },
            {
                "id": "ec5c3b51-395e-4414-8ffb-e411a8e141a1",
                "lat": 29.971124,
                "lng": 31.279545,
                "name": "El Lasilki Street",
                "stop_order": 4,
                "cumulative_price": 0.00
            },
            {
                "id": "5bfa4f4c-39b3-42b5-8028-4ca07a3375ae",
                "lat": 29.96334,
                "lng": 31.27452,
                "name": "Street 216",
                "stop_order": 5,
                "cumulative_price": 0.00
            },
            {
                "id": "6e89f808-14c8-4f7c-89b7-3b4f8c61e004",
                "lat": 29.95973,
                "lng": 31.26991,
                "name": "Port Said Street",
                "stop_order": 6,
                "cumulative_price": 0.00
            },
            {
                "id": "d2182ed8-b5d3-4f19-b361-0551dd60543a",
                "lat": 29.96323,
                "lng": 31.260666,
                "name": "Soares Square",
                "stop_order": 7,
                "cumulative_price": 0.00
            },
            {
                "id": "74bcb583-b69d-4d5a-b346-21390894341e",
                "lat": 29.961015,
                "lng": 31.250271,
                "name": "Misr Helwan Agriculture Road",
                "stop_order": 8,
                "cumulative_price": 0.00
            },
            {
                "id": "bb7a7479-6799-422f-b68d-b63bf1cc802e",
                "lat": 29.96698,
                "lng": 31.24839,
                "name": "Misr Helwan Agriculture Road",
                "stop_order": 9,
                "cumulative_price": 0.00
            },
            {
                "id": "f0a0d9fa-d5a8-4830-89c6-4ab213cf54b6",
                "lat": 29.97551,
                "lng": 31.2345,
                "name": "Nile Corniche",
                "stop_order": 10,
                "cumulative_price": 0.00
            },
            {
                "id": "1007de46-28f5-48f2-8717-a2b4572d1a62",
                "lat": 30.061155,
                "lng": 31.029364,
                "name": "Cairo Alexandria Desert Road",
                "stop_order": 11,
                "cumulative_price": 0.00
            },
            {
                "id": "44f9d7e9-045b-49ba-a82b-6d4f0171aeda",
                "lat": 30.083006,
                "lng": 31.021317,
                "name": "Opposite Vodafone V-Hub 1 Building",
                "stop_order": 12,
                "cumulative_price": 0.00
            },
            {
                "id": "164b3d99-ebec-4951-a20a-8a7966ff9048",
                "lat": 30.07916,
                "lng": 31.015771,
                "name": "Near EGX - The Egyptian Exchange",
                "stop_order": 13,
                "cumulative_price": 0.00
            },
            {
                "id": "4ae57ea8-4a65-4f24-9ecd-1ef945826d14",
                "lat": 30.07289,
                "lng": 31.023515,
                "name": "Opposite National Telecommunication Institute",
                "stop_order": 14,
                "cumulative_price": 0.00
            },
            {
                "id": "58d2a66d-a81a-495b-9f3c-abd7572d079d",
                "lat": 30.065312,
                "lng": 31.022317,
                "name": "Cairo Alexandria Road (Side Road)",
                "stop_order": 15,
                "cumulative_price": 0.00
            },
            {
                "id": "8d5336a1-6b8a-4999-8c70-e1c4dd62fb8b",
                "lat": 30.065374,
                "lng": 31.022293,
                "name": "Cairo Alexandria Road (Side Road)",
                "stop_order": 16,
                "cumulative_price": 0.00
            }
        ]
    },
    {
        "id": "3bc87668-1a36-46fe-af80-e5957bd69c56",
        "name": "Maadi → Smart Village #3",
        "description": "Imported route: Maadi_Smart Village35537. 15 stops, ~47.8 km.",
        "estimated_duration_mins": 90,
        "paired_return_route_id": null,
        "bookings_open": true,
        "route_visibility": "public",
        "route_stops": [
            {
                "id": "ad112d2a-bfb2-41ee-b627-f0492eb45851",
                "lat": 29.978697,
                "lng": 31.316999,
                "name": "Future Homes Square",
                "stop_order": 0,
                "cumulative_price": 0.00
            },
            {
                "id": "93afaacc-c754-4b15-b2b1-8b41d4f8112e",
                "lat": 29.980511,
                "lng": 31.317395,
                "name": "Carrefour Street",
                "stop_order": 1,
                "cumulative_price": 0.00
            },
            {
                "id": "8912be35-b690-444b-bcec-b729a1086a6e",
                "lat": 29.98726,
                "lng": 31.30839,
                "name": "Ring Road",
                "stop_order": 2,
                "cumulative_price": 0.00
            },
            {
                "id": "8538c694-1c60-4c29-9bec-156449bf1bab",
                "lat": 29.984265,
                "lng": 31.288896,
                "name": "Sakr Qorysh Entrance",
                "stop_order": 3,
                "cumulative_price": 0.00
            },
            {
                "id": "a8480501-9364-4e26-a1c7-32acd2921dfb",
                "lat": 29.97272,
                "lng": 31.28031,
                "name": "El Lasilki Street",
                "stop_order": 4,
                "cumulative_price": 0.00
            },
            {
                "id": "41f8afcc-c23a-4a3b-ae50-e6a24b067ef8",
                "lat": 29.96898,
                "lng": 31.27434,
                "name": "El Nadi El Gadid Street",
                "stop_order": 5,
                "cumulative_price": 0.00
            },
            {
                "id": "53fba6b1-70da-4b69-ab1f-f43ddf6f9c5a",
                "lat": 29.964724,
                "lng": 31.269774,
                "name": "Al Maadi Grand Mall Square",
                "stop_order": 6,
                "cumulative_price": 0.00
            },
            {
                "id": "ba9f546d-b165-4322-8e6d-b678e8bb29b0",
                "lat": 29.959682,
                "lng": 31.254231,
                "name": "Street 153",
                "stop_order": 7,
                "cumulative_price": 0.00
            },
            {
                "id": "16e5d728-0d15-4c32-87ac-5e6ba880df8c",
                "lat": 29.96698,
                "lng": 31.24839,
                "name": "Misr Helwan Agriculture Road",
                "stop_order": 8,
                "cumulative_price": 0.00
            },
            {
                "id": "edc00a37-a558-4a6e-a784-cbf91a27316a",
                "lat": 29.971605,
                "lng": 31.24709,
                "name": "Misr Helwan Agriculture Road",
                "stop_order": 9,
                "cumulative_price": 0.00
            },
            {
                "id": "79ce0546-688a-41bc-97f5-7b8a12d2b609",
                "lat": 30.061155,
                "lng": 31.029364,
                "name": "Cairo Alexandria Desert Road",
                "stop_order": 10,
                "cumulative_price": 0.00
            },
            {
                "id": "6d2521c5-f5ea-4b34-8cb7-a4d24f5b8355",
                "lat": 30.068031,
                "lng": 31.021311,
                "name": "Xceed BPO",
                "stop_order": 11,
                "cumulative_price": 0.00
            },
            {
                "id": "7c988b3c-ae43-455f-9ddb-d10ce380c528",
                "lat": 30.073927,
                "lng": 31.013737,
                "name": "Opposite ECG - Engineering Consultants Group",
                "stop_order": 12,
                "cumulative_price": 0.00
            },
            {
                "id": "6bde8a1d-19a4-4225-b2e5-96e237bf27c3",
                "lat": 30.079396,
                "lng": 31.016261,
                "name": "Near EGX - The Egyptian Exchange",
                "stop_order": 13,
                "cumulative_price": 0.00
            },
            {
                "id": "a1d85b1a-4f0e-4db2-9e02-4a8d269b85b3",
                "lat": 30.071151,
                "lng": 31.029767,
                "name": "Cairo Alexandria Desert Road",
                "stop_order": 14,
                "cumulative_price": 0.00
            }
        ]
    },
    {
        "id": "c33376b5-6eaa-4428-b519-127922de763d",
        "name": "Mohandessin → Smart Village #1",
        "description": "Imported route: Mohandessin_Smart Village40131. 13 stops, ~32.8 km.",
        "estimated_duration_mins": 67,
        "paired_return_route_id": null,
        "bookings_open": true,
        "route_visibility": "public",
        "route_stops": [
            {
                "id": "e697539a-7ab9-4a61-8d27-16d9b6c8391b",
                "lat": 30.08667,
                "lng": 31.21794,
                "name": "Mamdouh Salem Street",
                "stop_order": 0,
                "cumulative_price": 0.00
            },
            {
                "id": "380b1c5f-9664-465e-b14f-57f154f61e9d",
                "lat": 30.08667,
                "lng": 31.21794,
                "name": "Mamdouh Salem Street",
                "stop_order": 1,
                "cumulative_price": 0.00
            },
            {
                "id": "62c5b42b-a413-4d6e-9d84-8a26600309ac",
                "lat": 30.078914,
                "lng": 31.224246,
                "name": "Nile Corniche",
                "stop_order": 2,
                "cumulative_price": 0.00
            },
            {
                "id": "b1f4cc3d-8604-409a-ae96-05da7e39aae8",
                "lat": 30.06211,
                "lng": 31.211762,
                "name": "26th of July Axis",
                "stop_order": 3,
                "cumulative_price": 0.00
            },
            {
                "id": "92d0883b-9ab0-4c6f-b852-4d87b21e9b4a",
                "lat": 30.06364,
                "lng": 31.20546,
                "name": "Ahmed Oraby Street",
                "stop_order": 4,
                "cumulative_price": 0.00
            },
            {
                "id": "0828af0e-5146-42f1-9225-d8fb3e8029bb",
                "lat": 30.067116,
                "lng": 31.200224,
                "name": "Ahmed Oraby Street",
                "stop_order": 5,
                "cumulative_price": 0.00
            },
            {
                "id": "00c02c65-8dd3-4cb3-acc2-e0c697419279",
                "lat": 30.068857,
                "lng": 31.195221,
                "name": "El Sudan Street",
                "stop_order": 6,
                "cumulative_price": 0.00
            },
            {
                "id": "8725e77e-8c43-489e-b0ab-2f3e516cce92",
                "lat": 30.06462,
                "lng": 31.19067,
                "name": "El Sudan Street",
                "stop_order": 7,
                "cumulative_price": 0.00
            },
            {
                "id": "a8e70bd3-0806-4820-9945-9451d7b66d27",
                "lat": 30.068253,
                "lng": 31.020906,
                "name": "Xceed BPO",
                "stop_order": 8,
                "cumulative_price": 0.00
            },
            {
                "id": "f1825c71-9dd3-44e6-a877-c4af69e98e47",
                "lat": 30.07386,
                "lng": 31.01391,
                "name": "Opposite ECG - Engineering Consultants Group",
                "stop_order": 9,
                "cumulative_price": 0.00
            },
            {
                "id": "eef3af74-80d9-41e6-af79-4e45af5f8d13",
                "lat": 30.079496,
                "lng": 31.016487,
                "name": "Near EGX - The Egyptian Exchange",
                "stop_order": 10,
                "cumulative_price": 0.00
            },
            {
                "id": "2abfd1fa-3479-46e3-a224-ddfd39fe1b46",
                "lat": 30.07645,
                "lng": 31.0225,
                "name": "HSBC Smart Village Branch",
                "stop_order": 11,
                "cumulative_price": 0.00
            },
            {
                "id": "1862eb98-01bf-4571-adaa-7a7209b77f7c",
                "lat": 30.071141,
                "lng": 31.029836,
                "name": "Cairo Alexandria Desert Road",
                "stop_order": 12,
                "cumulative_price": 0.00
            }
        ]
    },
    {
        "id": "1d18e5bf-09c4-417c-b964-58842a1955dd",
        "name": "Mohandessin → Smart Village #2",
        "description": "Imported route: Mohandessin_Smart Village40290. 13 stops, ~33.7 km.",
        "estimated_duration_mins": 68,
        "paired_return_route_id": null,
        "bookings_open": true,
        "route_visibility": "public",
        "route_stops": [
            {
                "id": "25c872ed-6507-46a9-9854-a4c983ead07f",
                "lat": 30.03951,
                "lng": 31.21675,
                "name": "El Tahrir Street",
                "stop_order": 0,
                "cumulative_price": 0.00
            },
            {
                "id": "3f03424c-d352-4376-9dc3-a4bc98f18090",
                "lat": 30.03951,
                "lng": 31.21675,
                "name": "El Tahrir Street",
                "stop_order": 1,
                "cumulative_price": 0.00
            },
            {
                "id": "a9eed90a-34b3-4989-9e1d-1c79f3654679",
                "lat": 30.03768,
                "lng": 31.20833,
                "name": "El Tahrir Street",
                "stop_order": 2,
                "cumulative_price": 0.00
            },
            {
                "id": "467d8b9c-031b-4cd7-9cff-d8d012d6d12e",
                "lat": 30.036329,
                "lng": 31.202181,
                "name": "El Tahrir Street",
                "stop_order": 3,
                "cumulative_price": 0.00
            },
            {
                "id": "6ea4b2bd-86de-41cc-8df5-5970117db20b",
                "lat": 30.04234,
                "lng": 31.20044,
                "name": "Mohi El Din Abou El Ezz Street",
                "stop_order": 4,
                "cumulative_price": 0.00
            },
            {
                "id": "874a4116-69c1-4a54-8a5c-917b0b57665a",
                "lat": 30.049065,
                "lng": 31.198301,
                "name": "Gameat El Dewal El Arabeya Street",
                "stop_order": 5,
                "cumulative_price": 0.00
            },
            {
                "id": "0581abc2-0fb8-4a54-bc78-17c91098fa73",
                "lat": 30.05198,
                "lng": 31.20087,
                "name": "Gameat El Dewal El Arabeya Street",
                "stop_order": 6,
                "cumulative_price": 0.00
            },
            {
                "id": "fff6bd7d-bd2e-4e16-97c9-74b19e0b88aa",
                "lat": 30.057382,
                "lng": 31.205704,
                "name": "Gameat El Dewal El Arabeya Street",
                "stop_order": 7,
                "cumulative_price": 0.00
            },
            {
                "id": "7df74a65-a5bd-4a66-a190-e20643f25572",
                "lat": 30.06709,
                "lng": 31.20019,
                "name": "Ahmed Oraby Street",
                "stop_order": 8,
                "cumulative_price": 0.00
            },
            {
                "id": "adcbaa7e-f60c-47b5-952e-5a0900448f7e",
                "lat": 30.061155,
                "lng": 31.029364,
                "name": "Cairo Alexandria Desert Road",
                "stop_order": 9,
                "cumulative_price": 0.00
            },
            {
                "id": "b771a666-e53d-4d08-8d93-71b1c193101e",
                "lat": 30.076525,
                "lng": 31.022705,
                "name": "Smart Village School",
                "stop_order": 10,
                "cumulative_price": 0.00
            },
            {
                "id": "c4580fda-1be7-4859-b843-59967ef51f79",
                "lat": 30.079647,
                "lng": 31.016354,
                "name": "Near EGX - The Egyptian Exchange",
                "stop_order": 11,
                "cumulative_price": 0.00
            },
            {
                "id": "d54fc5a4-c189-4b7d-9276-028bd9b3f92a",
                "lat": 30.065592,
                "lng": 31.021761,
                "name": "Cairo Alexandria Road (Side Road)",
                "stop_order": 12,
                "cumulative_price": 0.00
            }
        ]
    },
    {
        "id": "e3e32241-94a6-402f-b0b8-3da696646da6",
        "name": "Mokattam → Smart Village #1",
        "description": "Imported route: Mokattam_Smart Village41283. 13 stops, ~50.9 km.",
        "estimated_duration_mins": 83,
        "paired_return_route_id": null,
        "bookings_open": true,
        "route_visibility": "public",
        "route_stops": [
            {
                "id": "88a166f1-b8b4-42d5-8561-30677108f1ef",
                "lat": 30.013117,
                "lng": 31.297074,
                "name": "Street 9",
                "stop_order": 0,
                "cumulative_price": 0.00
            },
            {
                "id": "c7532c42-0d8b-4388-b1e9-80d8735fa86f",
                "lat": 30.013117,
                "lng": 31.297074,
                "name": "Street 9",
                "stop_order": 1,
                "cumulative_price": 0.00
            },
            {
                "id": "92935d57-cd29-4202-ab92-04d8f2a60311",
                "lat": 30.00929,
                "lng": 31.30597,
                "name": "Street 9",
                "stop_order": 2,
                "cumulative_price": 0.00
            },
            {
                "id": "2a01b576-12ea-41dc-b582-de35516bee51",
                "lat": 30.008151,
                "lng": 31.314705,
                "name": "Street 9",
                "stop_order": 3,
                "cumulative_price": 0.00
            },
            {
                "id": "1a7b5ed6-11b2-4a6b-bed4-01f31c1381e2",
                "lat": 30.01222,
                "lng": 31.32242,
                "name": "Street 9",
                "stop_order": 4,
                "cumulative_price": 0.00
            },
            {
                "id": "4293b1e1-d8d4-4670-b298-d1b64530628a",
                "lat": 30.011906,
                "lng": 31.328757,
                "name": "Street 9",
                "stop_order": 5,
                "cumulative_price": 0.00
            },
            {
                "id": "dbf0dd14-ab5b-4755-ab0a-d42573355b2b",
                "lat": 30.00974,
                "lng": 31.33762,
                "name": "Street 9",
                "stop_order": 6,
                "cumulative_price": 0.00
            },
            {
                "id": "adae7c22-490b-46fa-8c3f-0553dff583d6",
                "lat": 29.99407,
                "lng": 31.31838,
                "name": "Ein El Hayah Street",
                "stop_order": 7,
                "cumulative_price": 0.00
            },
            {
                "id": "54d773d1-613a-47d8-951a-65de49017f99",
                "lat": 29.99597,
                "lng": 31.30892,
                "name": "Street 33",
                "stop_order": 8,
                "cumulative_price": 0.00
            },
            {
                "id": "3ef524fa-23b2-4050-8468-1d8ee0bd9d5e",
                "lat": 30.078014,
                "lng": 31.013692,
                "name": "Near Bank of Alexandria",
                "stop_order": 10,
                "cumulative_price": 0.00
            },
            {
                "id": "cad3a1d8-4db9-4548-b066-d54be677de36",
                "lat": 30.065394,
                "lng": 31.022076,
                "name": "Cairo Alexandria Road (Side Road)",
                "stop_order": 11,
                "cumulative_price": 0.00
            },
            {
                "id": "0b35fd7e-78a6-4bbe-a031-6e2f73a41203",
                "lat": 30.065511,
                "lng": 31.021955,
                "name": "Cairo Alexandria Road (Side Road)",
                "stop_order": 12,
                "cumulative_price": 0.00
            },
            {
                "id": "89869181-ca3b-4f63-a357-03a9df7594a5",
                "lat": 30.076525,
                "lng": 31.022705,
                "name": "Smart Village School",
                "stop_order": 9,
                "cumulative_price": 0.00
            }
        ]
    },
    {
        "id": "993dc53f-3642-43bf-89a8-4c15afa87b6f",
        "name": "Nasr City → Smart Village #1",
        "description": "Imported route: Nasr City_Smart Village45729. 18 stops, ~53.8 km.",
        "estimated_duration_mins": 104,
        "paired_return_route_id": null,
        "bookings_open": true,
        "route_visibility": "public",
        "route_stops": [
            {
                "id": "0caad672-b017-4cac-bb4a-6397c6691913",
                "lat": 30.066789,
                "lng": 31.320757,
                "name": "El Nasr Road",
                "stop_order": 11,
                "cumulative_price": 0.00
            },